[
    {
        "stop_id": "2579",
        "parent_station": "3",
        "stop_name": "Estação Iririú - Box 3",
        "stop_lat": -26.27297084,
        "stop_lon": -48.82814229,
        "shape_id": "0800-0",
        "stop_order": 1,
        "shape_dist_traveled": 81.49,
        "timepoint": 1
    },
    {
        "stop_id": "1208",
        "parent_station": null,
        "stop_name": "Rua Iririu, 1311 - Saguaçu",
        "stop_lat": -26.27434602,
        "stop_lon": -48.83269999,
        "shape_id": "0800-0",
        "stop_order": 2,
        "shape_dist_traveled": 537.02,
        "timepoint": 0
    },
    {
        "stop_id": "1198",
        "parent_station": null,
        "stop_name": "Rua Iririu, 978 - Saguaçu",
        "stop_lat": -26.27663101,
        "stop_lon": -48.83472296,
        "shape_id": "0800-0",
        "stop_order": 3,
        "shape_dist_traveled": 862.33,
        "timepoint": 0
    },
    {
        "stop_id": "1187",
        "parent_station": null,
        "stop_name": "Rua Iririu, 523 - Saguaçu",
        "stop_lat": -26.28018399,
        "stop_lon": -48.83712124,
        "shape_id": "0800-0",
        "stop_order": 4,
        "shape_dist_traveled": 1325.54,
        "timepoint": 0
    },
    {
        "stop_id": "2243",
        "parent_station": null,
        "stop_name": "Rua Iririu, 66 - Saguaçu",
        "stop_lat": -26.282641,
        "stop_lon": -48.84002401,
        "shape_id": "0800-0",
        "stop_order": 5,
        "shape_dist_traveled": 1727.49,
        "timepoint": 0
    },
    {
        "stop_id": "2802",
        "parent_station": null,
        "stop_name": "Rua Padre Antônio Vieira, 659 - Saguaçu",
        "stop_lat": -26.28319128,
        "stop_lon": -48.84209932,
        "shape_id": "0800-0",
        "stop_order": 6,
        "shape_dist_traveled": 1959.03,
        "timepoint": 0
    },
    {
        "stop_id": "2801",
        "parent_station": null,
        "stop_name": "Avenida José Vieira, 2000 - América",
        "stop_lat": -26.28711585,
        "stop_lon": -48.84340585,
        "shape_id": "0800-0",
        "stop_order": 7,
        "shape_dist_traveled": 3315.9,
        "timepoint": 0
    },
    {
        "stop_id": "2027",
        "parent_station": null,
        "stop_name": "Avenida José Viêira, 815 - América",
        "stop_lat": -26.29115702,
        "stop_lon": -48.843329,
        "shape_id": "0800-0",
        "stop_order": 8,
        "shape_dist_traveled": 3765.2,
        "timepoint": 0
    },
    {
        "stop_id": "2016",
        "parent_station": null,
        "stop_name": "Avenida José Vieira, 175 - América",
        "stop_lat": -26.29445496,
        "stop_lon": -48.84323998,
        "shape_id": "0800-0",
        "stop_order": 9,
        "shape_dist_traveled": 4131.98,
        "timepoint": 0
    },
    {
        "stop_id": "2705",
        "parent_station": null,
        "stop_name": "Avenida Doutor Albano Schulz, 807 - Centro",
        "stop_lat": -26.29887817,
        "stop_lon": -48.84252803,
        "shape_id": "0800-0",
        "stop_order": 10,
        "shape_dist_traveled": 4639.58,
        "timepoint": 0
    },
    {
        "stop_id": "2609",
        "parent_station": "1",
        "stop_name": "Terminal Central - Plataforma 1, Box 21",
        "stop_lat": -26.30142238,
        "stop_lon": -48.84470397,
        "shape_id": "0800-0",
        "stop_order": 11,
        "shape_dist_traveled": 5131.37,
        "timepoint": 1
    }
]